[
	{
		"id" : 1,
		"name" : "TDK, ลาดกระบัง",
		"location" : "888 Luang Phaeng Rd, Thap Yao, Lat Krabang, Bangkok 10520",
		"group" : "1",
		"prov" : "กรุงเทพมหานคร",
		"zone" : "0",
		"time" : "08:00 น. - 17:00 น.",
		"phone" : "023-607-555",
		"lat" : "13.708094199565522",
		"lng" : "100.82908232775239"
	},
	{
		"id" : 2,
		"name" : "Carryboy, สุขาภิบาล 3",
		"location" : "148 Rat Phatthana, Saphan Sung, Bangkok 10240",
		"group" : "2",
		"prov" : "กรุงเทพมหานคร",
		"zone" : "1",
		"time" : "08:00 น. - 17:00 น.",
		"phone" : "023-607-555",
		"lat" : "13.787002311031703",
		"lng" : "100.69273194118314"
	},
	{
		"id" : 3,
		"name" : "Carryboy, บางนา",
		"location" : "26/12 Bang Phli District, Samut Prakan 10540",
		"group" : "1",
		"prov" : "กรุงเทพมหานคร",
		"zone" : "2",
		"time" : "08:00 น. - 17:00 น.",
		"phone" : "023-607-555",
		"lat" : "13.651472565378615",
		"lng" : "100.68059744122864"
	},
	{
		"id" : 4,
		"name" : "Carryboy, ลาดกระบัง",
		"location" : "888 Luang Phaeng Rd, Thap Yao, Lat Krabang, Bangkok 10520",
		"group" : "2",
		"prov" : "กรุงเทพมหานคร",
		"zone" : "2",
		"time" : "08:00 น. - 17:00 น.",
		"phone" : "023-607-555",
		"lat" : "13.687313987837241",
		"lng" : "101.05210990221849"
	},
	{
		"id" : 5,
		"name" : "กระบี่",
		"location" : "กระบี่",
		"group" : "1",
		"prov" : "กระบี่",
		"zone" : "2",
		"time" : "08:00 น. - 17:00 น.",
		"phone" : "023-607-556",
		"lat" : "8.0862997",
		"lng" : "98.9062834999999"
	},
	{
		"id" : 6,
		"name" : "จันทบุรี",
		"location" : "จันทบุรี",
		"group" : "2",
		"prov" : "จันทบุรี",
		"zone" : "2",
		"time" : "08:00 น. - 17:00 น.",
		"phone" : "023-607-557",
		"lat" : "12.61134",
		"lng" : "102.103854599999"
	},
	{
		"id" : 7,
		"name" : "ชุมพร",
		"location" : "ชุมพร",
		"group" : "1",
		"prov" : "ชุมพร",
		"zone" : "2",
		"time" : "08:00 น. - 17:00 น.",
		"phone" : "023-607-558",
		"lat" : "10.4930496",
		"lng" : "99.1800198999999"
	},
	{
		"id" : 8,
		"name" : "ตรัง",
		"location" : "ตรัง",
		"group" : "2",
		"prov" : "ตรัง",
		"zone" : "2",
		"time" : "08:00 น. - 17:00 น.",
		"phone" : "023-607-559",
		"lat" : "7.5593851",
		"lng" : "99.6110065"
	},
	{
		"id" : 9,
		"name" : "ตราด",
		"location" : "ตราด",
		"group" : "1",
		"prov" : "ตราด",
		"zone" : "2",
		"time" : "08:00 น. - 17:00 น.",
		"phone" : "023-607-560",
		"lat" : "12.2427563",
		"lng" : "102.517473399999"
	},
	{
		"id" : 10,
		"name" : "นครศรีธรรมราช",
		"location" : "นครศรีธรรมราช",
		"group" : "2",
		"prov" : "นครศรีธรรมราช",
		"zone" : "2",
		"time" : "08:00 น. - 17:00 น.",
		"phone" : "023-607-561",
		"lat" : "8.4303975",
		"lng" : "99.9631219"
	},
	{
		"id" : 11,
		"name" : "นราธิวาส",
		"location" : "นราธิวาส",
		"group" : "1",
		"prov" : "นราธิวาส",
		"zone" : "2",
		"time" : "08:00 น. - 17:00 น.",
		"phone" : "023-607-562",
		"lat" : "6.4254607",
		"lng" : "101.825314299999"
	},
	{
		"id" : 12,
		"name" : "ประจวบคีรีขันธ์",
		"location" : "ประจวบคีรีขันธ์",
		"group" : "2",
		"prov" : "ประจวบคีรีขันธ์",
		"zone" : "2",
		"time" : "08:00 น. - 17:00 น.",
		"phone" : "023-607-563",
		"lat" : "11.812367",
		"lng" : "99.7973270999999"
	},
	{
		"id" : 13,
		"name" : "ปัตตานี",
		"location" : "ปัตตานี",
		"group" : "1",
		"prov" : "ปัตตานี",
		"zone" : "2",
		"time" : "08:00 น. - 17:00 น.",
		"phone" : "023-607-564",
		"lat" : "6.86948439999999",
		"lng" : "101.250482599999"
	},
	{
		"id" : 14,
		"name" : "พังงา",
		"location" : "พังงา",
		"group" : "2",
		"prov" : "พังงา",
		"zone" : "2",
		"time" : "08:00 น. - 17:00 น.",
		"phone" : "023-607-565",
		"lat" : "8.4407456",
		"lng" : "98.5193031999999"
	},
	{
		"id" : 15,
		"name" : "พัทลุง",
		"location" : "พัทลุง",
		"group" : "1",
		"prov" : "พัทลุง",
		"zone" : "2",
		"time" : "08:00 น. - 17:00 น.",
		"phone" : "023-607-566",
		"lat" : "7.6166823",
		"lng" : "100.074023099999"
	},
	{
		"id" : 16,
		"name" : "ภูเก็ต",
		"location" : "ภูเก็ต",
		"group" : "2",
		"prov" : "ภูเก็ต",
		"zone" : "2",
		"time" : "08:00 น. - 17:00 น.",
		"phone" : "023-607-567",
		"lat" : "7.9810496",
		"lng" : "98.3638823999999"
	},
	{
		"id" : 17,
		"name" : "ยะลา",
		"location" : "ยะลา",
		"group" : "1",
		"prov" : "ยะลา",
		"zone" : "2",
		"time" : "08:00 น. - 17:00 น.",
		"phone" : "023-607-568",
		"lat" : "6.541147",
		"lng" : "101.280394699999"
	},
	{
		"id" : 18,
		"name" : "ระนอง",
		"location" : "ระนอง",
		"group" : "2",
		"prov" : "ระนอง",
		"zone" : "2",
		"time" : "08:00 น. - 17:00 น.",
		"phone" : "023-607-569",
		"lat" : "9.9528702",
		"lng" : "98.6084640999999"
	},
	{
		"id" : 19,
		"name" : "ระยอง",
		"location" : "ระยอง",
		"group" : "1",
		"prov" : "ระยอง",
		"zone" : "2",
		"time" : "08:00 น. - 17:00 น.",
		"phone" : "023-607-570",
		"lat" : "12.6833115",
		"lng" : "101.237429499999"
	},
	{
		"id" : 20,
		"name" : "สงขลา",
		"location" : "สงขลา",
		"group" : "2",
		"prov" : "สงขลา",
		"zone" : "2",
		"time" : "08:00 น. - 17:00 น.",
		"phone" : "023-607-571",
		"lat" : "7.1756004",
		"lng" : "100.614346999999"
	},
	{
		"id" : 21,
		"name" : "สตูล",
		"location" : "สตูล",
		"group" : "1",
		"prov" : "สตูล",
		"zone" : "2",
		"time" : "08:00 น. - 17:00 น.",
		"phone" : "023-607-572",
		"lat" : "6.6238158",
		"lng" : "100.0673744"
	},
	{
		"id" : 22,
		"name" : "สุราษฎร์ธานี",
		"location" : "สุราษฎร์ธานี",
		"group" : "2",
		"prov" : "สุราษฎร์ธานี",
		"zone" : "2",
		"time" : "08:00 น. - 17:00 น.",
		"phone" : "023-607-573",
		"lat" : "9.1382389",
		"lng" : "99.3217482999999"
	},
	{
		"id" : 23,
		"name" : "กรุงเทพมหานคร",
		"location" : "กรุงเทพมหานคร",
		"group" : "1",
		"prov" : "กรุงเทพมหานคร",
		"zone" : "5",
		"time" : "08:00 น. - 17:00 น.",
		"phone" : "023-607-574",
		"lat" : "13.7278956",
		"lng" : "100.524123499999"
	},
	{
		"id" : 24,
		"name" : "กาญจนบุรี",
		"location" : "กาญจนบุรี",
		"group" : "2",
		"prov" : "กาญจนบุรี",
		"zone" : "5",
		"time" : "08:00 น. - 17:00 น.",
		"phone" : "023-607-575",
		"lat" : "14.0227797",
		"lng" : "99.5328114999999"
	},
	{
		"id" : 25,
		"name" : "กำแพงเพชร",
		"location" : "กำแพงเพชร",
		"group" : "1",
		"prov" : "กำแพงเพชร",
		"zone" : "5",
		"time" : "08:00 น. - 17:00 น.",
		"phone" : "023-607-576",
		"lat" : "16.4827798",
		"lng" : "99.5226617999999"
	},
	{
		"id" : 26,
		"name" : "ชลบุรี",
		"location" : "ชลบุรี",
		"group" : "2",
		"prov" : "ชลบุรี",
		"zone" : "5",
		"time" : "08:00 น. - 17:00 น.",
		"phone" : "023-607-577",
		"lat" : "13.3611431",
		"lng" : "100.9846717"
	},
	{
		"id" : 27,
		"name" : "ชัยนาท",
		"location" : "ชัยนาท",
		"group" : "1",
		"prov" : "ชัยนาท",
		"zone" : "5",
		"time" : "08:00 น. - 17:00 น.",
		"phone" : "023-607-578",
		"lat" : "15.1851971",
		"lng" : "100.125125"
	},
	{
		"id" : 28,
		"name" : "ตาก",
		"location" : "ตาก",
		"group" : "2",
		"prov" : "ตาก",
		"zone" : "5",
		"time" : "08:00 น. - 17:00 น.",
		"phone" : "023-607-579",
		"lat" : "16.8839901",
		"lng" : "99.1258497999999"
	},
	{
		"id" : 29,
		"name" : "นครปฐม",
		"location" : "นครปฐม",
		"group" : "1",
		"prov" : "นครปฐม",
		"zone" : "5",
		"time" : "08:00 น. - 17:00 น.",
		"phone" : "023-607-580",
		"lat" : "13.8199206",
		"lng" : "100.0621676"
	},
	{
		"id" : 30,
		"name" : "นครสวรรค์",
		"location" : "นครสวรรค์",
		"group" : "2",
		"prov" : "นครสวรรค์",
		"zone" : "5",
		"time" : "08:00 น. - 17:00 น.",
		"phone" : "023-607-581",
		"lat" : "15.6930072",
		"lng" : "100.122559499999"
	},
	{
		"id" : 31,
		"name" : "นนทบุรี",
		"location" : "นนทบุรี",
		"group" : "1",
		"prov" : "นนทบุรี",
		"zone" : "5",
		"time" : "08:00 น. - 17:00 น.",
		"phone" : "023-607-582",
		"lat" : "13.8621125",
		"lng" : "100.514352799999"
	},
	{
		"id" : 32,
		"name" : "ปทุมธานี",
		"location" : "ปทุมธานี",
		"group" : "2",
		"prov" : "ปทุมธานี",
		"zone" : "5",
		"time" : "08:00 น. - 17:00 น.",
		"phone" : "023-607-583",
		"lat" : "14.0208391",
		"lng" : "100.525027599999"
	},
	{
		"id" : 33,
		"name" : "พระนครศรีอยุธยา",
		"location" : "พระนครศรีอยุธยา",
		"group" : "1",
		"prov" : "พระนครศรีอยุธยา",
		"zone" : "5",
		"time" : "08:00 น. - 17:00 น.",
		"phone" : "023-607-584",
		"lat" : "14.3532128",
		"lng" : "100.568959899999"
	},
	{
		"id" : 34,
		"name" : "พิจิตร",
		"location" : "พิจิตร",
		"group" : "2",
		"prov" : "พิจิตร",
		"zone" : "5",
		"time" : "08:00 น. - 17:00 น.",
		"phone" : "023-607-585",
		"lat" : "16.4429516",
		"lng" : "100.348232899999"
	},
	{
		"id" : 35,
		"name" : "พิษณุโลก",
		"location" : "พิษณุโลก",
		"group" : "1",
		"prov" : "พิษณุโลก",
		"zone" : "5",
		"time" : "08:00 น. - 17:00 น.",
		"phone" : "023-607-586",
		"lat" : "16.8298048",
		"lng" : "100.2614915"
	},
	{
		"id" : 36,
		"name" : "เพชรบุรี",
		"location" : "เพชรบุรี",
		"group" : "2",
		"prov" : "เพชรบุรี",
		"zone" : "5",
		"time" : "08:00 น. - 17:00 น.",
		"phone" : "023-607-587",
		"lat" : "13.1111601",
		"lng" : "99.9391306999999"
	},
	{
		"id" : 37,
		"name" : "ราชบุรี",
		"location" : "ราชบุรี",
		"group" : "1",
		"prov" : "ราชบุรี",
		"zone" : "5",
		"time" : "08:00 น. - 17:00 น.",
		"phone" : "023-607-588",
		"lat" : "13.5282893",
		"lng" : "99.8134211"
	},
	{
		"id" : 38,
		"name" : "ลพบุรี",
		"location" : "ลพบุรี",
		"group" : "2",
		"prov" : "ลพบุรี",
		"zone" : "5",
		"time" : "08:00 น. - 17:00 น.",
		"phone" : "023-607-589",
		"lat" : "14.7995081",
		"lng" : "100.6533706"
	},
	{
		"id" : 39,
		"name" : "สมุทรปราการ",
		"location" : "สมุทรปราการ",
		"group" : "1",
		"prov" : "สมุทรปราการ",
		"zone" : "5",
		"time" : "08:00 น. - 17:00 น.",
		"phone" : "023-607-590",
		"lat" : "13.5990961",
		"lng" : "100.5998319"
	},
	{
		"id" : 40,
		"name" : "สมุทรสงคราม",
		"location" : "สมุทรสงคราม",
		"group" : "2",
		"prov" : "สมุทรสงคราม",
		"zone" : "5",
		"time" : "08:00 น. - 17:00 น.",
		"phone" : "023-607-591",
		"lat" : "13.4098217",
		"lng" : "100.0022645"
	},
	{
		"id" : 41,
		"name" : "สมุทรสาคร",
		"location" : "สมุทรสาคร",
		"group" : "1",
		"prov" : "สมุทรสาคร",
		"zone" : "5",
		"time" : "08:00 น. - 17:00 น.",
		"phone" : "023-607-592",
		"lat" : "13.5475216",
		"lng" : "100.274395599999"
	},
	{
		"id" : 42,
		"name" : "สระบุรี",
		"location" : "สระบุรี",
		"group" : "2",
		"prov" : "สระบุรี",
		"zone" : "5",
		"time" : "08:00 น. - 17:00 น.",
		"phone" : "023-607-593",
		"lat" : "14.5289154",
		"lng" : "100.9101421"
	},
	{
		"id" : 43,
		"name" : "สิงห์บุรี",
		"location" : "สิงห์บุรี",
		"group" : "1",
		"prov" : "สิงห์บุรี",
		"zone" : "5",
		"time" : "08:00 น. - 17:00 น.",
		"phone" : "023-607-594",
		"lat" : "14.8936253",
		"lng" : "100.3967314"
	},
	{
		"id" : 44,
		"name" : "สุพรรณบุรี",
		"location" : "สุพรรณบุรี",
		"group" : "2",
		"prov" : "สุพรรณบุรี",
		"zone" : "5",
		"time" : "08:00 น. - 17:00 น.",
		"phone" : "023-607-595",
		"lat" : "14.4744892",
		"lng" : "100.117712799999"
	},
	{
		"id" : 45,
		"name" : "อ่างทอง",
		"location" : "อ่างทอง",
		"group" : "1",
		"prov" : "อ่างทอง",
		"zone" : "5",
		"time" : "08:00 น. - 17:00 น.",
		"phone" : "023-607-596",
		"lat" : "14.5896054",
		"lng" : "100.455052"
	},
	{
		"id" : 46,
		"name" : "อุทัยธานี",
		"location" : "อุทัยธานี",
		"group" : "2",
		"prov" : "อุทัยธานี",
		"zone" : "5",
		"time" : "08:00 น. - 17:00 น.",
		"phone" : "023-607-597",
		"lat" : "15.3835001",
		"lng" : "100.024552699999"
	},
	{
		"id" : 47,
		"name" : "กาฬสินธุ์",
		"location" : "กาฬสินธุ์",
		"group" : "1",
		"prov" : "กาฬสินธุ์",
		"zone" : "6",
		"time" : "08:00 น. - 17:00 น.",
		"phone" : "023-607-598",
		"lat" : "16.4314078",
		"lng" : "103.5058755"
	},
	{
		"id" : 48,
		"name" : "ขอนแก่น",
		"location" : "ขอนแก่น",
		"group" : "2",
		"prov" : "ขอนแก่น",
		"zone" : "6",
		"time" : "08:00 น. - 17:00 น.",
		"phone" : "023-607-599",
		"lat" : "16.4419355",
		"lng" : "102.8359921"
	},
	{
		"id" : 49,
		"name" : "ฉะเชิงเทรา",
		"location" : "ฉะเชิงเทรา",
		"group" : "1",
		"prov" : "ฉะเชิงเทรา",
		"zone" : "6",
		"time" : "08:00 น. - 17:00 น.",
		"phone" : "023-607-600",
		"lat" : "13.6904194",
		"lng" : "101.077959599999"
	},
	{
		"id" : 50,
		"name" : "ชัยภูมิ",
		"location" : "ชัยภูมิ",
		"group" : "2",
		"prov" : "ชัยภูมิ",
		"zone" : "6",
		"time" : "08:00 น. - 17:00 น.",
		"phone" : "023-607-601",
		"lat" : "15.8068173",
		"lng" : "102.0315027"
	},
	{
		"id" : 51,
		"name" : "นครนายก",
		"location" : "นครนายก",
		"group" : "1",
		"prov" : "นครนายก",
		"zone" : "6",
		"time" : "08:00 น. - 17:00 น.",
		"phone" : "023-607-602",
		"lat" : "14.2069466",
		"lng" : "101.2130511"
	},
	{
		"id" : 52,
		"name" : "นคราชสีมา",
		"location" : "นคราชสีมา",
		"group" : "2",
		"prov" : "นคราชสีมา",
		"zone" : "6",
		"time" : "08:00 น. - 17:00 น.",
		"phone" : "023-607-603",
		"lat" : "14.9798997",
		"lng" : "102.097769299999"
	},
	{
		"id" : 53,
		"name" : "บุรีรัมย์",
		"location" : "บุรีรัมย์",
		"group" : "1",
		"prov" : "บุรีรัมย์",
		"zone" : "6",
		"time" : "08:00 น. - 17:00 น.",
		"phone" : "023-607-604",
		"lat" : "14.9930017",
		"lng" : "103.1029191"
	},
	{
		"id" : 54,
		"name" : "ปราจีนบุรี",
		"location" : "ปราจีนบุรี",
		"group" : "2",
		"prov" : "ปราจีนบุรี",
		"zone" : "6",
		"time" : "08:00 น. - 17:00 น.",
		"phone" : "023-607-605",
		"lat" : "14.0509704",
		"lng" : "101.372743899999"
	},
	{
		"id" : 55,
		"name" : "เพชรบูรณ์",
		"location" : "เพชรบูรณ์",
		"group" : "1",
		"prov" : "เพชรบูรณ์",
		"zone" : "6",
		"time" : "08:00 น. - 17:00 น.",
		"phone" : "023-607-606",
		"lat" : "16.4189807",
		"lng" : "101.155092599999"
	},
	{
		"id" : 56,
		"name" : "มหาสารคาม",
		"location" : "มหาสารคาม",
		"group" : "2",
		"prov" : "มหาสารคาม",
		"zone" : "6",
		"time" : "08:00 น. - 17:00 น.",
		"phone" : "023-607-607",
		"lat" : "16.1850896",
		"lng" : "103.302646099999"
	},
	{
		"id" : 57,
		"name" : "มุกดาหาร",
		"location" : "มุกดาหาร",
		"group" : "1",
		"prov" : "มุกดาหาร",
		"zone" : "6",
		"time" : "08:00 น. - 17:00 น.",
		"phone" : "023-607-608",
		"lat" : "16.542443",
		"lng" : "104.720915099999"
	},
	{
		"id" : 58,
		"name" : "ยโสธร",
		"location" : "ยโสธร",
		"group" : "2",
		"prov" : "ยโสธร",
		"zone" : "6",
		"time" : "08:00 น. - 17:00 น.",
		"phone" : "023-607-609",
		"lat" : "15.792641",
		"lng" : "104.1452827"
	},
	{
		"id" : 59,
		"name" : "ร้อยเอ็ด",
		"location" : "ร้อยเอ็ด",
		"group" : "1",
		"prov" : "ร้อยเอ็ด",
		"zone" : "6",
		"time" : "08:00 น. - 17:00 น.",
		"phone" : "023-607-610",
		"lat" : "16.0538196",
		"lng" : "103.652003599999"
	},
	{
		"id" : 60,
		"name" : "ศรีสะเกษ",
		"location" : "ศรีสะเกษ",
		"group" : "2",
		"prov" : "ศรีสะเกษ",
		"zone" : "6",
		"time" : "08:00 น. - 17:00 น.",
		"phone" : "023-607-611",
		"lat" : "15.1186009",
		"lng" : "104.322009499999"
	},
	{
		"id" : 61,
		"name" : "สระแก้ว",
		"location" : "สระแก้ว",
		"group" : "1",
		"prov" : "สระแก้ว",
		"zone" : "6",
		"time" : "08:00 น. - 17:00 น.",
		"phone" : "023-607-612",
		"lat" : "13.824038",
		"lng" : "102.0645839"
	},
	{
		"id" : 62,
		"name" : "สุรินทร์",
		"location" : "สุรินทร์",
		"group" : "2",
		"prov" : "สุรินทร์",
		"zone" : "6",
		"time" : "08:00 น. - 17:00 น.",
		"phone" : "023-607-613",
		"lat" : "14.882905",
		"lng" : "103.4937107"
	},
	{
		"id" : 63,
		"name" : "อำนาจเจริญ",
		"location" : "อำนาจเจริญ",
		"group" : "1",
		"prov" : "อำนาจเจริญ",
		"zone" : "6",
		"time" : "08:00 น. - 17:00 น.",
		"phone" : "023-607-614",
		"lat" : "15.8656783",
		"lng" : "104.6257774"
	},
	{
		"id" : 64,
		"name" : "อุบลราชธานี",
		"location" : "อุบลราชธานี",
		"group" : "2",
		"prov" : "อุบลราชธานี",
		"zone" : "6",
		"time" : "08:00 น. - 17:00 น.",
		"phone" : "023-607-615",
		"lat" : "15.2286861",
		"lng" : "104.8564217"
	},
	{
		"id" : 65,
		"name" : "เชียงราย",
		"location" : "เชียงราย",
		"group" : "1",
		"prov" : "เชียงราย",
		"zone" : "8",
		"time" : "08:00 น. - 17:00 น.",
		"phone" : "023-607-616",
		"lat" : "19.9071656",
		"lng" : "99.830955"
	},
	{
		"id" : 66,
		"name" : "เชียงใหม่",
		"location" : "เชียงใหม่",
		"group" : "2",
		"prov" : "เชียงใหม่",
		"zone" : "8",
		"time" : "08:00 น. - 17:00 น.",
		"phone" : "023-607-617",
		"lat" : "18.7877477",
		"lng" : "98.9931311"
	},
	{
		"id" : 67,
		"name" : "น่าน",
		"location" : "น่าน",
		"group" : "1",
		"prov" : "น่าน",
		"zone" : "8",
		"time" : "08:00 น. - 17:00 น.",
		"phone" : "023-607-618",
		"lat" : "18.7756318",
		"lng" : "100.7730417"
	},
	{
		"id" : 68,
		"name" : "พะเยา",
		"location" : "พะเยา",
		"group" : "2",
		"prov" : "พะเยา",
		"zone" : "8",
		"time" : "08:00 น. - 17:00 น.",
		"phone" : "023-607-619",
		"lat" : "19.1664789",
		"lng" : "99.9019419"
	},
	{
		"id" : 69,
		"name" : "แพร่",
		"location" : "แพร่",
		"group" : "1",
		"prov" : "แพร่",
		"zone" : "8",
		"time" : "08:00 น. - 17:00 น.",
		"phone" : "023-607-620",
		"lat" : "18.1445774",
		"lng" : "100.1402831"
	},
	{
		"id" : 70,
		"name" : "แม่ฮ่องสอน",
		"location" : "แม่ฮ่องสอน",
		"group" : "2",
		"prov" : "แม่ฮ่องสอน",
		"zone" : "8",
		"time" : "08:00 น. - 17:00 น.",
		"phone" : "023-607-621",
		"lat" : "19.2990643",
		"lng" : "97.9656225999999"
	},
	{
		"id" : 71,
		"name" : "ลำปาง",
		"location" : "ลำปาง",
		"group" : "1",
		"prov" : "ลำปาง",
		"zone" : "8",
		"time" : "08:00 น. - 17:00 น.",
		"phone" : "023-607-622",
		"lat" : "18.2888404",
		"lng" : "99.4908739999999"
	},
	{
		"id" : 72,
		"name" : "ลำพูน",
		"location" : "ลำพูน",
		"group" : "2",
		"prov" : "ลำพูน",
		"zone" : "8",
		"time" : "08:00 น. - 17:00 น.",
		"phone" : "023-607-623",
		"lat" : "18.5744606",
		"lng" : "99.0087221"
	},
	{
		"id" : 73,
		"name" : "สุโขทัย",
		"location" : "สุโขทัย",
		"group" : "1",
		"prov" : "สุโขทัย",
		"zone" : "8",
		"time" : "08:00 น. - 17:00 น.",
		"phone" : "023-607-624",
		"lat" : "17.0055573",
		"lng" : "99.8263712"
	},
	{
		"id" : 74,
		"name" : "อุตรดิตถ์",
		"location" : "อุตรดิตถ์",
		"group" : "2",
		"prov" : "อุตรดิตถ์",
		"zone" : "8",
		"time" : "08:00 น. - 17:00 น.",
		"phone" : "023-607-625",
		"lat" : "17.6200886",
		"lng" : "100.0992942"
	},
	{
		"id" : 75,
		"name" : "นครพนม",
		"location" : "นครพนม",
		"group" : "1",
		"prov" : "นครพนม",
		"zone" : "9",
		"time" : "08:00 น. - 17:00 น.",
		"phone" : "023-607-626",
		"lat" : "17.392039",
		"lng" : "104.769550799999"
	},
	{
		"id" : 76,
		"name" : "เลย",
		"location" : "เลย",
		"group" : "2",
		"prov" : "เลย",
		"zone" : "9",
		"time" : "08:00 น. - 17:00 น.",
		"phone" : "023-607-627",
		"lat" : "17.4860232",
		"lng" : "101.7223002"
	},
	{
		"id" : 77,
		"name" : "สกลนคร",
		"location" : "สกลนคร",
		"group" : "1",
		"prov" : "สกลนคร",
		"zone" : "9",
		"time" : "08:00 น. - 17:00 น.",
		"phone" : "023-607-628",
		"lat" : "17.1545995",
		"lng" : "104.1348365"
	},
	{
		"id" : 78,
		"name" : "หนองคาย",
		"location" : "หนองคาย",
		"group" : "2",
		"prov" : "หนองคาย",
		"zone" : "9",
		"time" : "08:00 น. - 17:00 น.",
		"phone" : "023-607-629",
		"lat" : "17.8782803",
		"lng" : "102.7412638"
	},
	{
		"id" : 79,
		"name" : "หนองบัวลำภู",
		"location" : "หนองบัวลำภู",
		"group" : "1",
		"prov" : "หนองบัวลำภู",
		"zone" : "9",
		"time" : "08:00 น. - 17:00 น.",
		"phone" : "023-607-630",
		"lat" : "17.2218247",
		"lng" : "102.4260368"
	},
	{
		"id" : 80,
		"name" : "อุดรธานี",
		"location" : "อุดรธานี",
		"group" : "2",
		"prov" : "อุดรธานี",
		"zone" : "9",
		"time" : "08:00 น. - 17:00 น.",
		"phone" : "023-607-631",
		"lat" : "17.4138413",
		"lng" : "102.7872325"
	},
	{
		"id" : 81,
		"name" : "บึงกาฬ",
		"location" : "บึงกาฬ",
		"group" : "1",
		"prov" : "บึงกาฬ",
		"zone" : "9",
		"time" : "08:00 น. - 17:00 น.",
		"phone" : "023-607-632",
		"lat" : "18.3609104",
		"lng" : "103.646446299999"
	}
]
